City_ID,City,Country,Lat,Lng,Max Temp,Humidity,Cloudiness,Wind Speed,Current Description
0,Cidreira,BR,-30.1811,-50.2056,75.18,78,3,18.1,clear sky
1,Hobart,AU,-42.8794,147.3294,61.11,63,75,8.05,broken clouds
2,Syracuse,IT,37.0881,15.2792,53.89,63,0,3.58,clear sky
3,Kruisfontein,ZA,-34.0033,24.7314,61.83,86,41,2.35,scattered clouds
4,Yellowknife,CA,62.456,-114.3525,-8.59,81,75,11.5,broken clouds
5,Carnarvon,AU,-24.8667,113.6333,78.87,73,75,8.05,broken clouds
6,Vaini,TO,-21.2,-175.2,81.52,81,83,21.88,broken clouds
7,Port Alfred,ZA,-33.5906,26.891,70.48,80,87,8.32,overcast clouds
8,Butaritari,KI,3.0707,172.7902,81.37,79,30,17.9,scattered clouds
9,Dovolnoye,RU,54.4958,79.6671,-22.54,100,44,5.03,scattered clouds
10,Busselton,AU,-33.65,115.3333,63.09,61,0,4.0,clear sky
11,Rikitea,PF,-23.1203,-134.9692,79.32,71,65,17.94,broken clouds
12,Hermanus,ZA,-34.4187,19.2345,63.9,77,0,3.0,clear sky
13,Georgetown,MY,5.4112,100.3354,78.89,92,20,1.14,few clouds
14,Hihya,EG,30.6713,31.588,56.28,75,100,4.99,overcast clouds
15,Semnan,IR,35.5729,53.3971,48.04,29,0,4.61,clear sky
16,Wangqing,CN,43.3218,129.7634,11.14,95,100,1.48,overcast clouds
17,Ushuaia,AR,-54.8,-68.3,49.62,71,75,29.93,broken clouds
18,Marion,US,39.7684,-86.1555,39.81,67,100,6.91,overcast clouds
19,Mataura,NZ,-46.1927,168.8643,59.49,88,100,2.66,overcast clouds
20,Kapaa,US,22.0752,-159.319,80.19,67,2,3.0,clear sky
21,Horsham,GB,51.064,-0.3272,41.59,66,0,8.05,clear sky
22,Taoudenni,ML,22.6783,-3.9836,65.16,18,49,11.97,scattered clouds
23,Cape Town,ZA,-33.9258,18.4232,67.08,62,0,8.05,clear sky
24,Avarua,CK,-21.2078,-159.775,80.65,78,100,10.36,overcast clouds
25,Pisco,PE,-13.7,-76.2167,80.02,69,0,10.36,clear sky
26,Trapani,IT,37.8333,12.6667,52.9,63,0,3.71,clear sky
27,Hithadhoo,MV,-0.6,73.0833,81.27,71,100,6.96,overcast clouds
28,Cap Malheureux,MU,-19.9842,57.6142,77.49,78,0,6.13,clear sky
29,Arraial Do Cabo,BR,-22.9661,-42.0278,71.46,88,100,4.61,overcast clouds
30,Upernavik,GL,72.7868,-56.1549,-5.62,96,100,6.6,overcast clouds
31,Dikson,RU,73.5069,80.5464,8.13,90,100,26.98,overcast clouds
32,Lompoc,US,34.6391,-120.4579,87.21,25,0,6.91,clear sky
33,Kang,BW,-23.6752,22.7876,77.85,47,93,3.36,overcast clouds
34,Sao Filipe,CV,14.8961,-24.4956,78.22,54,100,6.73,overcast clouds
35,Sinnamary,GF,5.3833,-52.95,77.9,84,54,12.5,broken clouds
36,Pangnirtung,CA,66.1451,-65.7125,-2.2,55,100,3.44,overcast clouds
37,Thompson,CA,55.7435,-97.8558,-9.24,70,75,17.27,broken clouds
38,Sao Gabriel Da Cachoeira,BR,-0.1303,-67.0892,83.16,72,100,2.33,overcast clouds
39,Bluff,NZ,-46.6,168.3333,59.81,82,66,12.97,broken clouds
40,Cabedelo,BR,-6.9811,-34.8339,84.87,68,10,10.07,clear sky
41,Victoria,HK,22.2855,114.1577,63.25,86,100,11.99,overcast clouds
42,Rampur,IN,28.8167,79.0333,49.39,80,0,8.03,clear sky
43,Ust-Omchug,RU,61.15,149.6333,-31.72,97,98,1.66,overcast clouds
44,Houma,US,29.5958,-90.7195,70.0,39,16,4.36,few clouds
45,Sitka,US,57.0531,-135.33,35.19,62,100,4.52,overcast clouds
46,Micheweni,TZ,-4.9667,39.8333,80.19,77,95,13.09,overcast clouds
47,Niltepec,MX,16.5667,-94.6167,87.66,39,27,7.2,scattered clouds
48,Sainte-Marie,RE,-20.8968,55.5496,75.36,83,0,5.75,clear sky
49,Makakilo City,US,21.3469,-158.0858,78.62,57,1,2.21,clear sky
50,Blantyre,MW,-15.785,35.0085,66.25,81,85,4.76,overcast clouds
51,Narsaq,GL,60.9167,-46.05,8.82,61,79,8.84,broken clouds
52,Deputatskiy,RU,69.3,139.9,-22.49,94,98,5.84,overcast clouds
53,Santa Barbara,US,34.7333,-120.0343,80.42,19,0,8.05,clear sky
54,Lebu,CL,-37.6167,-73.65,60.66,67,63,26.82,broken clouds
55,New Norfolk,AU,-42.7826,147.0587,60.75,57,53,2.01,broken clouds
56,Kudahuvadhoo,MV,2.6708,72.8944,81.1,75,47,10.74,scattered clouds
57,Vagamo,NO,61.8751,9.0967,11.52,89,50,7.2,scattered clouds
58,Mtambile,TZ,-5.3833,39.7,79.95,76,98,11.81,overcast clouds
59,Khatanga,RU,71.9667,102.5,-5.85,98,88,13.27,overcast clouds
60,Albany,US,42.6001,-73.9662,43.75,67,28,9.17,light rain
61,Mount Gambier,AU,-37.8333,140.7667,56.35,84,68,5.77,broken clouds
62,Kaitangata,NZ,-46.2817,169.8464,60.49,85,93,3.74,overcast clouds
63,Srednekolymsk,RU,67.45,153.6833,-39.78,99,50,4.59,scattered clouds
64,Guangyuan,CN,32.442,105.823,39.27,81,84,2.3,broken clouds
65,Vila Velha,BR,-20.3297,-40.2925,76.95,86,75,10.36,moderate rain
66,Guerrero Negro,MX,27.9769,-114.0611,75.42,23,0,4.25,clear sky
67,Del Rio,US,29.3627,-100.8968,71.82,25,1,8.79,clear sky
68,Bredasdorp,ZA,-34.5322,20.0403,58.28,72,0,3.09,clear sky
69,Dafeng,CN,23.4517,108.5881,49.46,96,100,3.24,overcast clouds
70,Khartoum,SD,15.5518,32.5324,74.01,17,1,4.0,clear sky
71,Niquelandia,BR,-14.4739,-48.4597,69.4,95,100,1.12,overcast clouds
72,Parrita,CR,9.5201,-84.3225,89.06,69,29,6.13,scattered clouds
73,Labytnangi,RU,66.6572,66.4183,13.1,93,100,14.03,overcast clouds
74,Tuktoyaktuk,CA,69.4541,-133.0374,-11.27,96,100,15.99,light snow
75,Kahului,US,20.8947,-156.47,77.85,71,7,3.0,clear sky
76,San Patricio,US,28.017,-97.5169,72.54,33,100,4.72,overcast clouds
77,Castro,BR,-24.7911,-50.0119,73.67,72,28,3.69,scattered clouds
78,Lapa,BR,-25.7697,-49.7158,76.37,69,29,9.19,scattered clouds
79,Westport,US,41.1415,-73.3579,54.28,45,8,13.0,clear sky
80,Saint-Philippe,RE,-21.3585,55.7679,74.79,79,25,5.97,scattered clouds
81,Iquitos,PE,-3.7481,-73.2472,87.85,54,69,1.12,broken clouds
82,Boddam,GB,57.4667,-1.7833,37.71,60,63,24.32,broken clouds
83,Lorengau,PG,-2.0226,147.2712,80.1,82,100,5.75,overcast clouds
84,Dingle,PH,10.9995,122.6711,75.88,83,97,9.84,overcast clouds
85,Port Elizabeth,ZA,-33.918,25.5701,65.89,82,37,3.91,scattered clouds
86,Severo-Kurilsk,RU,50.6789,156.125,23.85,76,85,7.67,overcast clouds
87,Grindavik,IS,63.8424,-22.4338,32.47,74,75,19.57,broken clouds
88,Airai,TL,-8.9266,125.4092,60.28,92,100,1.43,overcast clouds
89,Zeya,RU,53.75,127.2667,-4.79,94,86,4.03,overcast clouds
90,Qaanaaq,GL,77.484,-69.3632,-19.95,56,13,6.93,few clouds
91,Sarahan,IN,31.5167,77.8,23.54,53,1,11.21,clear sky
92,Qaqortoq,GL,60.7167,-46.0333,9.1,63,98,8.37,overcast clouds
93,Wake Forest,US,35.9799,-78.5097,66.43,25,0,9.22,clear sky
94,Mar Del Plata,AR,-38.0023,-57.5575,84.22,85,0,25.01,clear sky
95,Ilulissat,GL,69.2167,-51.1,-0.38,46,75,3.44,broken clouds
96,Doka,SD,13.5167,35.7667,81.1,27,1,12.82,clear sky
97,Chokurdakh,RU,70.6333,147.9167,-28.66,95,40,8.7,scattered clouds
98,Usak,TR,38.5,29.4167,30.2,73,0,7.9,clear sky
99,Jamestown,US,42.097,-79.2353,38.52,53,95,7.0,overcast clouds
100,Ponta Do Sol,PT,32.6667,-17.1,70.72,41,100,6.51,overcast clouds
101,Bambous Virieux,MU,-20.3428,57.7575,77.25,94,40,2.3,scattered clouds
102,Ostrovnoy,RU,68.0531,39.5131,28.35,87,100,19.6,overcast clouds
103,Tommot,RU,58.9564,126.2925,-25.83,99,100,1.36,overcast clouds
104,Henties Bay,NA,-22.116,14.2845,71.85,81,72,7.67,broken clouds
105,Myanaung,MM,18.2833,95.3167,64.08,28,53,5.21,broken clouds
106,Winona,US,43.9666,-91.7668,24.55,74,40,5.75,scattered clouds
107,Bucerias,MX,20.75,-105.3333,79.83,40,0,9.71,clear sky
108,Hilo,US,19.7297,-155.09,77.11,68,6,5.99,clear sky
109,Thinadhoo,MV,0.5333,72.9333,81.01,74,29,6.31,scattered clouds
110,Nikolskoye,RU,59.7035,30.7861,36.88,86,100,10.27,overcast clouds
111,Finschhafen,PG,-6.6024,147.8681,78.84,85,100,5.91,moderate rain
112,Barrow,US,71.2906,-156.7887,-25.58,75,100,6.91,haze
113,Tigre,AR,-34.426,-58.5796,88.29,51,0,3.0,clear sky
114,Moron,AR,-34.6534,-58.6198,88.02,49,0,7.0,clear sky
115,Vao,NC,-22.6667,167.4833,81.05,88,100,39.75,moderate rain
116,Taltal,CL,-25.4,-70.4833,67.82,73,17,3.09,few clouds
117,Ca Mau,VN,9.1769,105.15,76.75,83,100,7.52,light rain
118,Tual,ID,-5.6667,132.75,80.33,80,100,3.78,overcast clouds
119,Buenaventura,CO,3.8801,-77.0312,79.09,90,89,5.5,overcast clouds
120,Eureka,US,40.8021,-124.1637,81.12,56,0,4.14,clear sky
121,Cherskiy,RU,68.75,161.3,-34.82,99,100,6.53,overcast clouds
122,Freeport,US,40.6576,-73.5832,54.48,38,5,8.01,clear sky
123,Kodiak,US,57.79,-152.4072,32.22,80,100,13.04,overcast clouds
124,Codrington,AU,-38.2667,141.9667,60.85,75,42,11.79,scattered clouds
125,Swindon,GB,51.558,-1.7812,40.59,86,0,10.36,clear sky
126,Killybegs,IE,54.6333,-8.45,42.51,76,36,15.03,scattered clouds
127,Vestmanna,FO,62.1564,-7.1664,27.52,69,75,2.3,broken clouds
128,Talnakh,RU,69.4865,88.3972,-12.39,96,51,11.54,broken clouds
129,Hornepayne,CA,49.2138,-84.7705,11.39,79,100,3.24,overcast clouds
130,Evensk,RU,61.95,159.2333,-13.7,73,65,5.53,broken clouds
131,Shahrud,IR,36.4182,54.9763,41.81,41,94,2.86,overcast clouds
132,Voznesenskaya,RU,44.5527,41.0318,32.59,85,59,7.72,broken clouds
133,Hofn,IS,64.2539,-15.2082,26.06,59,21,6.78,few clouds
134,Birobidzhan,RU,48.8,132.95,1.92,98,100,1.92,overcast clouds
135,Kampot,KH,10.6167,104.1833,77.7,80,100,3.8,overcast clouds
136,Kavieng,PG,-2.5744,150.7967,80.76,81,70,7.36,moderate rain
137,Puerto Ayora,EC,-0.7393,-90.3518,77.56,88,98,4.0,overcast clouds
138,Agirish,RU,61.9247,63.0231,6.71,94,100,11.36,overcast clouds
139,Dunedin,NZ,-45.8742,170.5036,62.56,85,16,3.42,few clouds
140,Verkhovazhye,RU,60.7472,42.0465,26.26,96,100,7.7,light snow
141,Wukari,NG,7.85,9.7833,80.33,10,65,6.58,broken clouds
142,Los Arabos,CU,22.7281,-80.7214,75.67,71,100,8.95,overcast clouds
143,Oleksandrivka,UA,48.9634,32.2349,35.17,97,100,6.91,overcast clouds
144,Vardo,NO,70.3705,31.1107,25.0,86,75,11.5,broken clouds
145,Abashiri,JP,44.0213,144.2697,15.94,96,95,5.08,overcast clouds
146,Comodoro Rivadavia,AR,-45.8667,-67.5,62.46,29,40,8.05,scattered clouds
147,Sambava,MG,-14.2667,50.1667,75.56,90,42,4.59,light rain
148,Bubaque,GW,11.2833,-15.8333,79.05,77,4,12.64,clear sky
149,Torbay,CA,47.6666,-52.7314,36.75,85,48,9.28,scattered clouds
150,Zapolyarnyy,RU,69.4154,30.8136,24.08,98,85,7.54,overcast clouds
151,Homun,MX,20.7333,-89.2833,80.56,47,61,5.39,broken clouds
152,Bethel,US,41.3712,-73.414,51.69,49,10,1.01,clear sky
153,Tortoli,IT,39.9256,9.6572,51.71,59,0,4.09,clear sky
154,Anadyr,RU,64.75,177.4833,-25.1,75,0,8.95,clear sky
155,Cayenne,GF,4.9333,-52.3333,77.09,87,100,1.01,overcast clouds
156,Zyryanka,RU,65.75,150.85,-38.45,98,39,5.44,scattered clouds
157,Te Anau,NZ,-45.4167,167.7167,65.68,70,22,1.7,few clouds
158,Cananeia,BR,-25.0147,-47.9267,77.56,73,12,7.61,few clouds
159,Avera,US,33.194,-82.5271,69.71,30,40,8.16,scattered clouds
160,Aykhal,RU,66.0,111.5,-7.15,93,99,4.45,overcast clouds
161,Aracati,BR,-4.5617,-37.7697,82.08,64,91,9.91,overcast clouds
162,Tiksi,RU,71.6872,128.8694,-9.9,92,100,16.15,overcast clouds
163,Saskylakh,RU,71.9167,114.0833,4.78,93,100,13.58,overcast clouds
164,Ampanihy,MG,-24.7,44.75,73.58,85,50,12.71,scattered clouds
165,Terenos,BR,-20.4422,-54.8603,87.51,48,40,8.05,scattered clouds
166,Puerto Carreno,CO,6.189,-67.4859,96.58,27,74,11.23,broken clouds
167,Nanortalik,GL,60.1432,-45.2371,25.99,56,100,9.37,overcast clouds
168,Kapuskasing,CA,49.4169,-82.4331,10.76,82,100,4.54,overcast clouds
169,Teluk Nibung,ID,3.001,99.8164,73.92,92,100,0.74,overcast clouds
170,Chinhoyi,ZW,-17.3667,30.2,64.74,92,81,2.24,light rain
171,East London,ZA,-33.0153,27.9116,70.97,81,10,4.68,clear sky
172,Longyearbyen,SJ,78.2186,15.6401,24.64,68,75,6.91,broken clouds
173,Port Hedland,AU,-20.3167,118.5667,80.65,89,7,6.91,clear sky
174,Atuona,PF,-9.8,-139.0333,78.57,74,1,16.96,clear sky
175,Acapulco,MX,16.8634,-99.8901,82.27,53,100,8.9,overcast clouds
176,Carbonia,IT,39.1672,8.5222,50.0,78,0,3.42,clear sky
177,Los Llanos De Aridane,ES,28.6585,-17.9182,71.35,29,0,16.11,clear sky
178,Ribeira Grande,PT,38.5167,-28.7,59.4,82,20,10.36,few clouds
179,Chapais,CA,49.7834,-74.8492,19.18,92,100,11.36,light snow
180,Itarema,BR,-2.9248,-39.9167,80.83,72,77,9.8,broken clouds
181,Ketchikan,US,55.3422,-131.6461,39.67,65,40,5.75,scattered clouds
182,Dumas,US,35.8656,-101.9732,60.22,21,0,18.41,clear sky
183,Constitucion,CL,-35.3333,-72.4167,65.05,65,100,9.17,overcast clouds
184,Asyut,EG,27.181,31.1837,55.71,43,84,10.38,broken clouds
185,Padang,ID,-0.9492,100.3543,77.02,78,100,3.96,moderate rain
186,Axim,GH,4.8699,-2.2405,79.18,87,0,8.75,clear sky
187,Port Hardy,CA,50.6996,-127.4199,46.76,87,79,9.91,broken clouds
188,Ekhabi,RU,53.5102,142.9671,23.47,97,100,6.38,light snow
189,Churapcha,RU,62.0025,132.4325,-36.17,100,96,2.84,overcast clouds
190,Port-Gentil,GA,-0.7193,8.7815,81.25,79,100,4.88,overcast clouds
191,Calabozo,VE,8.9242,-67.4293,95.54,25,100,4.16,overcast clouds
192,Arroyo,ES,41.6096,-4.7969,46.62,69,20,6.91,few clouds
193,Portland,US,45.5234,-122.6762,62.85,88,100,3.44,overcast clouds
194,Tynda,RU,55.1667,124.7167,-21.26,97,99,2.59,overcast clouds
195,Copiapo,CL,-27.3667,-70.3333,77.77,40,0,10.65,clear sky
196,Pamekasan,ID,-7.1568,113.4746,75.45,94,100,5.97,overcast clouds
197,Northam,GB,51.0333,-4.2167,44.62,74,7,15.99,clear sky
198,Mehamn,NO,71.0357,27.8492,24.98,79,0,13.8,clear sky
199,Tara,RU,56.8944,74.371,-12.28,99,6,4.7,clear sky
200,Fairbanks,US,64.8378,-147.7164,-5.19,73,100,4.61,overcast clouds
201,Prince Rupert,CA,54.3161,-130.3201,41.23,80,100,4.29,overcast clouds
202,Kawalu,ID,-7.3817,108.2082,73.13,91,100,2.37,light rain
203,Bengkulu,ID,-3.8004,102.2655,74.91,79,95,5.14,overcast clouds
204,Pemangkat,ID,1.1667,108.9667,75.74,92,100,8.77,light rain
205,Bhadrak,IN,21.0633,86.5054,68.34,80,9,1.9,clear sky
206,Kongoussi,BF,13.3258,-1.5347,78.71,10,0,10.16,clear sky
207,Cabo San Lucas,MX,22.8909,-109.9124,79.52,54,0,8.05,clear sky
208,Ancud,CL,-41.8697,-73.8203,62.13,52,6,13.67,clear sky
209,Resistencia,AR,-27.4606,-58.9839,100.09,57,0,6.24,clear sky
210,Little Current,CA,45.9793,-81.9248,27.41,79,51,14.29,broken clouds
211,San Buenaventura,MX,27.0833,-101.5333,71.47,27,100,8.25,overcast clouds
212,Penha,BR,-26.7694,-48.6458,81.55,69,20,10.36,few clouds
213,Kachug,RU,53.9606,105.8817,-31.22,100,83,1.52,broken clouds
214,Pangody,RU,65.85,74.4859,1.9,81,11,17.58,few clouds
215,Touros,BR,-5.1989,-35.4608,85.1,71,53,13.51,broken clouds
216,San Vito,CR,8.8208,-82.9709,72.43,86,74,3.15,broken clouds
217,Liverpool,GB,53.4106,-2.9779,44.55,80,75,10.0,broken clouds
218,Ojinaga,MX,29.5667,-104.4167,71.56,20,0,4.61,clear sky
219,Lata,PT,40.1629,-8.3327,57.72,69,100,0.76,overcast clouds
220,Iralaya,HN,15.0,-83.2333,78.89,68,8,10.42,clear sky
221,Salina Cruz,MX,16.1667,-95.2,86.49,44,1,15.12,clear sky
222,Guiglo,CI,6.5456,-7.4966,77.81,29,53,2.42,broken clouds
223,Mahebourg,MU,-20.4081,57.7,77.29,94,40,2.3,scattered clouds
224,Saint George,US,37.1041,-113.5841,68.47,28,1,3.0,clear sky
225,Rawson,AR,-43.3002,-65.1023,64.18,40,59,19.39,broken clouds
226,Asau,RO,46.4333,26.4,38.95,77,31,7.05,scattered clouds
227,Roblin,CA,51.23,-101.3565,33.67,99,100,19.71,light snow
228,Chuy,UY,-33.6971,-53.4616,74.77,59,7,14.09,clear sky
229,Banjar,ID,-8.19,114.9675,78.66,90,100,0.98,overcast clouds
230,Abbeville,FR,50.1,1.8333,39.94,84,100,9.04,overcast clouds
231,Fortuna,US,40.5982,-124.1573,80.85,48,0,1.01,clear sky
232,Iguai,BR,-14.7564,-40.0892,77.02,75,2,5.35,clear sky
233,Turayf,SA,31.6725,38.6637,40.51,88,14,9.17,few clouds
234,Norman Wells,CA,65.282,-126.8329,-11.16,70,100,14.97,overcast clouds
235,Namatanai,PG,-3.6667,152.4333,79.72,82,97,3.0,light rain
236,Muros,ES,42.7762,-9.0603,54.09,92,99,8.01,overcast clouds
237,Bandarbeyla,SO,9.4942,50.8122,73.76,62,13,17.09,few clouds
238,Kuusamo,FI,65.9667,29.1833,26.64,93,100,11.5,overcast clouds
239,Denpasar,ID,-8.65,115.2167,78.46,88,75,8.05,broken clouds
240,Punta Arenas,CL,-53.15,-70.9167,51.91,54,40,34.52,scattered clouds
241,Luderitz,NA,-26.6481,15.1594,73.4,52,4,16.71,clear sky
242,Kirensk,RU,57.7853,108.1119,-25.22,100,95,2.35,overcast clouds
243,Key Biscayne,US,25.6937,-80.1628,78.03,62,40,9.22,scattered clouds
244,Topeka,US,39.0483,-95.678,56.25,40,0,16.11,clear sky
245,Half Moon Bay,US,37.4636,-122.4286,79.5,29,1,6.89,clear sky
246,Alice Springs,AU,-23.7,133.8833,60.35,82,0,5.75,clear sky
247,Nara,JP,34.6851,135.8049,40.28,62,11,3.27,few clouds
248,Marystown,CA,47.1666,-55.1483,35.85,100,54,7.0,broken clouds
249,Puerto Colombia,CO,10.9878,-74.9547,86.09,73,15,23.47,few clouds
250,Esperance,AU,-33.8667,121.9,73.72,46,12,19.01,few clouds
251,Moose Factory,CA,51.2585,-80.6094,4.98,66,40,9.22,scattered clouds
252,Edd,ER,13.9297,41.6925,79.86,59,67,16.67,broken clouds
253,Sao Joao Da Barra,BR,-21.6403,-41.0511,75.29,90,89,10.16,overcast clouds
254,Port Macquarie,AU,-31.4333,152.9167,66.88,70,87,8.84,light rain
255,Palmas,BR,-10.2128,-48.3603,76.57,94,100,2.77,overcast clouds
256,Fairfield,US,41.2668,-73.3162,52.97,47,0,14.97,clear sky
257,Ahipara,NZ,-35.1667,173.1667,74.12,94,99,10.0,overcast clouds
258,Harsud,IN,22.1,76.7333,57.7,40,6,7.07,clear sky
259,Koson,UZ,39.0375,65.585,50.32,39,83,9.4,broken clouds
260,Lao Cai,VN,22.4833,103.95,57.4,90,100,1.21,overcast clouds
261,Ibate,BR,-21.9547,-47.9967,71.87,82,100,4.5,overcast clouds
262,Hirara,JP,24.8,125.2833,65.1,76,100,18.54,overcast clouds
263,Vikhorevka,RU,56.1201,101.1636,-16.76,100,96,1.45,overcast clouds
264,Ponnani,IN,10.767,75.9252,78.12,87,77,4.34,broken clouds
265,Geraldton,AU,-28.7667,114.6,66.61,88,4,5.75,light rain
266,San Cristobal,VE,7.7669,-72.225,78.98,66,81,1.52,broken clouds
267,Flic En Flac,MU,-20.2742,57.3631,77.56,81,7,6.06,clear sky
268,Loandjili,CG,-4.7561,11.8578,78.01,87,1,5.41,clear sky
269,Eyl,SO,7.9803,49.8164,72.18,64,1,16.46,clear sky
270,Provideniya,RU,64.3833,-173.3,-9.29,64,0,4.47,clear sky
271,Ranong,TH,9.9658,98.6348,75.58,90,100,4.27,overcast clouds
272,Porterville,US,36.0652,-119.0168,75.6,37,0,2.84,clear sky
273,Kamaishi,JP,39.2667,141.8833,31.24,80,99,10.94,light snow
274,Bosobolo,CD,4.1833,19.9,78.08,21,34,2.44,scattered clouds
275,Port Lincoln,AU,-34.7333,135.8667,61.68,72,8,15.3,clear sky
276,Pevek,RU,69.7008,170.3133,-32.24,98,100,8.81,overcast clouds
277,Cockburn Town,TC,21.4612,-71.1419,77.77,74,0,16.64,clear sky
278,Tasiilaq,GL,65.6145,-37.6368,17.76,58,48,7.61,scattered clouds
279,Souillac,MU,-20.5167,57.5167,77.38,94,40,2.3,scattered clouds
280,Kaeo,NZ,-35.1,173.7833,76.32,98,99,7.61,overcast clouds
281,Starkville,US,33.4504,-88.8184,70.79,23,1,7.02,clear sky
282,Ucluelet,CA,48.9329,-125.5528,47.08,94,54,1.86,broken clouds
283,Maryville,US,35.7565,-83.9705,62.2,29,14,13.0,few clouds
284,San Rafael,AR,-34.6177,-68.3301,86.86,24,62,17.78,moderate rain
285,Faanui,PF,-16.4833,-151.75,81.14,75,48,16.17,scattered clouds
286,San Andres,CO,12.5847,-81.7006,84.22,70,20,14.97,few clouds
287,Grand-Lahou,CI,5.1367,-5.0242,79.21,89,0,10.18,clear sky
288,Huanren,CN,41.2647,125.3667,15.84,97,47,2.37,scattered clouds
289,Edgewater,US,28.9889,-80.9023,73.44,45,0,13.8,clear sky
290,Carson City,US,39.1638,-119.7674,61.12,34,0,4.61,clear sky
291,Hearst,CA,49.6835,-83.6665,9.16,80,100,3.67,overcast clouds
292,Turbat,PK,26.0023,63.044,65.53,37,0,1.34,clear sky
293,Storslett,NO,69.7678,21.0247,28.94,96,100,7.74,light snow
294,Leningradskiy,RU,69.3833,178.4167,-18.58,97,99,4.23,overcast clouds
295,Mahina,PF,-17.5065,-149.489,83.97,70,40,5.75,scattered clouds
296,Noumea,NC,-22.2763,166.4572,80.58,99,100,25.57,moderate rain
297,Hillsborough,US,37.5741,-122.3794,78.91,29,4,6.24,clear sky
298,Rovaniemi,FI,66.5,25.7167,27.81,100,100,6.91,overcast clouds
299,Mazatlan,MX,23.2167,-106.4167,75.16,65,0,6.91,clear sky
300,Kisangani,CD,0.5167,25.2,78.53,65,100,4.21,overcast clouds
301,Bereda,ES,43.2686,-7.5406,49.57,100,100,1.23,moderate rain
302,Galle,LK,6.0367,80.217,75.69,88,20,7.34,heavy intensity rain
303,Binga,ZW,-17.6203,27.3414,71.37,88,21,4.14,few clouds
304,Lokomotivnyy,RU,53.0118,60.5684,9.34,96,100,8.08,overcast clouds
305,Mega,ET,4.05,38.3,64.53,39,3,9.93,clear sky
306,Pangkalanbuun,ID,-2.6833,111.6167,73.15,98,100,2.37,overcast clouds
307,Morondava,MG,-20.2833,44.2833,81.37,79,100,9.62,overcast clouds
308,Nanga Eboko,CM,4.6833,12.3667,72.27,23,5,2.77,clear sky
309,Saint-Augustin,CA,51.226,-58.6502,22.64,96,100,2.08,overcast clouds
310,Maceio,BR,-9.6658,-35.7353,81.84,69,0,13.8,clear sky
311,Segou,ML,13.4317,-6.2157,79.47,10,0,12.03,clear sky
312,Alofi,NU,-19.0595,-169.9187,84.09,70,40,11.5,scattered clouds
313,Labuhan,ID,-6.8844,112.2051,76.59,90,100,4.76,overcast clouds
314,Benguela,AO,-12.5763,13.4055,75.7,70,100,4.25,overcast clouds
315,Roald,NO,62.5833,6.1333,33.91,93,100,13.8,overcast clouds
316,Mikhaylovka,RU,50.06,43.2379,35.78,95,99,11.9,overcast clouds
317,Olinda,BR,-8.0089,-34.8553,83.93,65,20,8.05,few clouds
318,Linjiang,CN,41.8069,126.9078,9.79,97,68,1.83,broken clouds
319,High Level,CA,58.5169,-117.136,5.11,85,100,6.91,light snow
320,Lubango,AO,-14.9172,13.4925,57.43,79,95,1.36,overcast clouds
321,Vertou,FR,47.1687,-1.4693,45.3,87,100,5.75,overcast clouds
322,Srikakulam,IN,18.3,83.9,69.96,76,10,2.08,clear sky
323,Bud,US,39.447,-86.1758,41.76,69,74,12.46,broken clouds
324,Saldanha,ZA,-33.0117,17.9442,62.83,82,0,10.49,clear sky
325,Grand Gaube,MU,-20.0064,57.6608,77.4,78,1,6.53,clear sky
326,Amga,RU,60.8953,131.9608,-27.56,100,95,1.43,overcast clouds
327,Texarkana,US,33.4251,-94.0477,64.38,34,92,4.45,overcast clouds
328,Gora Kalwaria,PL,51.9765,21.2154,47.8,72,100,15.41,overcast clouds
329,Oistins,BB,13.0667,-59.5333,80.69,57,20,25.32,few clouds
330,Katsuura,JP,35.1333,140.3,37.11,93,100,22.97,overcast clouds
331,Larsnes,NO,62.2028,5.5773,33.6,70,100,11.27,light snow
332,Shangrao,CN,28.4532,117.9686,42.51,96,100,4.25,light rain
333,Ashland,US,40.8167,-82.2665,35.8,75,100,11.56,overcast clouds
334,Santiago Del Estero,AR,-27.7951,-64.2615,101.35,16,10,15.35,clear sky
335,Iqaluit,CA,63.7506,-68.5145,-0.6,98,100,5.21,light snow
336,Sangar,RU,63.9242,127.4739,-40.95,100,59,2.42,broken clouds
337,Rock Island,US,41.45,-90.5168,35.58,61,0,12.66,clear sky
338,Ust-Ishim,RU,57.6935,71.1665,-8.61,98,23,5.46,few clouds
339,Yulara,AU,-25.2406,130.9889,67.84,56,0,5.75,clear sky
340,Salalah,OM,17.0151,54.0924,73.49,64,40,2.3,scattered clouds
341,Nouadhibou,MR,20.931,-17.0347,73.24,46,97,11.39,overcast clouds
342,Saint Andrews,US,34.0454,-81.1293,68.09,22,20,14.97,few clouds
343,Great Bend,US,38.3645,-98.7648,60.89,37,0,19.57,clear sky
344,Riyadh,SA,24.6877,46.7219,66.34,22,0,13.87,clear sky
345,Tutoia,BR,-2.7619,-42.2744,84.18,80,94,7.76,overcast clouds
346,Mao,ES,39.8885,4.2658,48.76,87,20,2.3,few clouds
347,Lafiagi,NG,8.8667,5.4167,84.56,12,90,2.1,overcast clouds
348,Isangel,VU,-19.55,169.2667,80.22,90,100,22.03,overcast clouds
349,Ust-Kuyga,RU,70.0167,135.6,-20.87,98,100,8.41,overcast clouds
350,Bay Roberts,CA,47.5999,-53.2648,37.24,78,27,6.24,scattered clouds
351,Moryakovskiy Zaton,RU,56.6956,84.6467,-4.99,99,20,4.12,few clouds
352,Tessalit,ML,20.1986,1.0114,67.6,10,5,10.8,clear sky
353,Palm Coast,US,29.585,-81.2078,69.06,52,15,1.99,few clouds
354,Aginskoye,RU,51.1,114.53,-5.67,97,93,6.02,overcast clouds
355,Kangaatsiaq,GL,68.3065,-53.4641,-10.1,91,100,8.34,overcast clouds
356,Cerkezkoy,TR,41.285,28.0003,40.23,93,0,1.14,clear sky
357,Flinders,AU,-34.5833,150.8552,71.19,85,90,11.01,overcast clouds
358,Shadegan,IR,30.6497,48.6647,61.9,60,88,14.07,overcast clouds
359,Altamont,US,42.2068,-121.7372,58.77,50,0,2.26,clear sky
360,Morro Bay,US,35.3658,-120.8499,83.71,41,0,2.59,clear sky
361,Calvinia,ZA,-31.4707,19.776,70.16,50,0,4.27,clear sky
362,Pavlovskiy,RU,57.8424,54.8436,19.02,94,100,11.68,snow
363,Santa Maria,BR,-29.6842,-53.8069,93.16,23,0,8.77,clear sky
364,Beidao,CN,34.5686,105.8933,28.53,93,97,3.49,light snow
365,Cairns,AU,-16.9167,145.7667,76.06,97,3,0.0,clear sky
366,Aklavik,CA,68.2191,-135.0107,-15.88,92,100,4.99,overcast clouds
367,Clyde River,CA,70.4692,-68.5914,-19.97,76,100,11.5,overcast clouds
368,Quatre Cocos,MU,-20.2078,57.7625,77.11,83,16,6.06,few clouds
369,Ngunguru,NZ,-35.6167,174.5,76.15,97,98,11.01,overcast clouds
370,Honiara,SB,-9.4333,159.95,80.71,81,65,5.55,moderate rain
371,Mossendjo,CG,-2.9506,12.7261,70.57,98,74,3.04,moderate rain
372,Barcelos,PT,41.5388,-8.6151,56.84,72,95,4.03,overcast clouds
373,Pamanukan,ID,-6.2842,107.8106,75.61,89,100,7.4,overcast clouds
374,Ahuimanu,US,21.4447,-157.8378,80.31,64,75,6.91,broken clouds
375,Atambua,ID,-9.1061,124.8925,72.34,88,100,1.28,light rain
376,Jalu,LY,29.0331,21.5482,53.28,50,5,8.32,clear sky
377,Belmonte,BR,-15.8631,-38.8828,82.9,79,6,8.21,clear sky
378,Kindu,CD,-2.95,25.95,68.79,95,98,1.57,overcast clouds
379,Norfolk,US,42.1668,-71.2495,51.42,51,75,14.97,broken clouds
380,Karratha,AU,-20.7377,116.8463,83.84,75,12,9.17,few clouds
381,Oktyabrskiy,RU,54.4815,53.471,19.72,93,100,10.16,overcast clouds
382,Lazaro Cardenas,MX,17.9583,-102.2,81.81,48,93,9.35,overcast clouds
383,Maniitsoq,GL,65.4167,-52.9,16.34,89,100,8.99,overcast clouds
384,Stromness,GB,58.965,-3.296,37.36,51,96,20.58,overcast clouds
385,Jiuquan,CN,39.7432,98.5174,23.77,42,58,3.8,broken clouds
386,Vestmannaeyjar,IS,63.4427,-20.2734,37.54,55,100,17.65,overcast clouds
387,Minsk,BY,53.9,27.5667,33.55,95,100,4.99,overcast clouds
388,Sorland,NO,67.667,12.6934,30.27,54,100,25.57,light snow
389,Gladstone,AU,-23.85,151.25,72.79,68,0,5.75,clear sky
390,Mount Isa,AU,-20.7333,139.5,80.37,28,43,16.11,scattered clouds
391,Mazara Del Vallo,IT,37.6641,12.588,54.55,64,0,2.53,clear sky
392,Imeni Poliny Osipenko,RU,52.4201,136.4853,-0.44,99,99,0.31,overcast clouds
393,Sokolo,ML,14.7328,-6.1219,77.29,9,0,11.16,clear sky
394,Ilhabela,BR,-23.7781,-45.3581,75.47,80,93,4.14,overcast clouds
395,Tazmalt,DZ,36.3868,4.3989,49.69,59,6,3.36,clear sky
396,Yishui,CN,35.7847,118.6281,34.34,73,95,1.86,overcast clouds
397,Abrau-Dyurso,RU,44.69,37.59,44.06,77,100,10.07,overcast clouds
398,Lethem,GY,3.3803,-59.7968,94.21,33,94,9.71,overcast clouds
399,Santa Ines,BR,-3.6667,-45.38,76.06,94,99,4.52,overcast clouds
400,Port Augusta,AU,-32.5,137.7667,59.7,59,0,9.22,clear sky
401,Unity,CA,52.4501,-109.1682,38.25,78,61,28.61,broken clouds
402,Kununurra,AU,-15.7667,128.7333,76.98,94,99,0.0,overcast clouds
403,Verkhnyaya Inta,RU,65.9811,60.3094,16.99,77,100,12.5,overcast clouds
404,Dongsheng,CN,39.8161,109.9776,22.89,52,100,4.81,overcast clouds
405,Birin,NP,26.8865,88.0718,44.46,83,72,2.3,broken clouds
406,Agua Verde,MX,22.9,-106.05,75.29,51,0,8.21,clear sky
407,Novocheremshansk,RU,54.3571,50.1666,12.7,99,100,3.15,overcast clouds
408,Berlevag,NO,70.8578,29.0864,21.15,79,0,19.57,clear sky
409,Malanje,AO,-9.5402,16.341,63.57,81,78,2.39,broken clouds
410,Meadow Lake,US,34.8014,-106.5436,54.84,26,2,5.12,clear sky
411,Saint-Pierre,RE,-21.3393,55.4781,74.88,78,0,4.61,clear sky
412,Honningsvag,NO,70.9821,25.9704,24.55,74,20,19.57,few clouds
413,Sepolno Krajenskie,PL,53.452,17.5317,38.98,88,100,12.73,overcast clouds
414,Puerto Del Rosario,ES,28.5004,-13.8627,67.75,68,0,6.91,clear sky
415,Aygehovit,AM,40.9795,45.2503,36.41,88,100,2.77,overcast clouds
416,Havre-Saint-Pierre,CA,50.2334,-63.5986,30.07,98,100,8.48,snow
417,Kovdor,RU,67.5662,30.4758,16.27,98,100,2.89,overcast clouds
418,Kavaratti,IN,10.5669,72.642,79.03,76,55,14.67,broken clouds
419,Sovetskiy,RU,61.3614,63.5842,5.85,95,100,11.25,overcast clouds
420,Kovernino,RU,57.1253,43.8142,25.59,97,100,6.78,snow
421,Peoria,US,40.7667,-89.7668,32.74,75,75,9.22,broken clouds
422,Borzya,RU,50.3833,116.5167,-19.34,100,82,2.93,broken clouds
423,Byron Bay,AU,-28.65,153.6167,75.15,78,18,10.85,few clouds
424,Bonthe,SL,7.5264,-12.505,78.49,87,0,6.62,clear sky
425,Ternate,ID,0.8,127.4,79.48,83,55,5.01,broken clouds
426,Scottsboro,US,34.6723,-86.0341,66.11,25,0,6.91,clear sky
427,San Blas,MX,21.5167,-105.2667,85.89,44,0,7.34,clear sky
428,Hirata,JP,35.4333,132.8167,40.57,80,94,0.94,overcast clouds
429,Kamenka,RU,51.3223,42.7678,32.76,97,100,14.63,overcast clouds
430,Watertown,US,42.3709,-71.1828,51.82,50,40,17.27,scattered clouds
431,Hamilton,US,39.1834,-84.5333,47.62,54,20,14.97,few clouds
432,Kaharlyk,UA,49.8623,30.8282,36.43,94,63,8.03,broken clouds
433,Brae,GB,60.3964,-1.353,35.51,54,100,20.89,overcast clouds
434,Komsomolskiy,UZ,40.4272,71.7189,35.02,74,100,4.61,mist
435,Waverly,US,42.7392,-84.6208,30.45,75,100,11.5,overcast clouds
436,Miyako,JP,39.6367,141.9525,31.46,74,100,9.98,overcast clouds
437,Sibolga,ID,1.7427,98.7792,74.95,85,98,2.98,light rain
438,Homer,US,59.6425,-151.5483,31.05,75,40,5.75,scattered clouds
439,Praya,CV,14.9215,-23.5087,77.54,41,0,12.66,clear sky
440,Ziro,IN,27.6333,93.8333,35.65,97,98,2.51,overcast clouds
441,Sur,OM,22.5667,59.5289,68.36,56,0,2.48,clear sky
442,Uyemskiy,RU,64.4743,40.8524,28.45,92,100,8.95,shower snow
443,Luwuk,ID,-0.9516,122.7875,76.71,85,77,3.31,broken clouds
444,Saint Anthony,US,45.0205,-93.218,28.65,78,100,8.01,snow
445,Terrace Bay,CA,48.7834,-87.1,11.37,82,100,6.93,overcast clouds
446,Tilichiki,RU,60.4667,166.1,-15.79,78,36,7.47,scattered clouds
447,Chornyanka,UA,46.6522,33.359,38.91,88,80,7.34,broken clouds
448,Thamaga,BW,-24.6701,25.5397,70.66,63,51,4.47,broken clouds
449,Vila Franca Do Campo,PT,37.7167,-25.4333,59.2,76,90,8.28,overcast clouds
450,Puurmani,EE,58.5738,26.2878,35.91,90,88,10.69,light snow
451,Les Escoumins,CA,48.1111,-69.0236,31.37,97,100,10.71,light snow
452,Trat,TH,12.5,102.5,82.98,95,100,1.86,overcast clouds
453,Porbandar,IN,21.6422,69.6093,68.59,38,0,12.95,clear sky
454,Bontang,ID,0.1333,117.5,75.63,90,100,0.25,overcast clouds
455,Beringovskiy,RU,63.05,179.3167,-27.38,94,25,3.6,scattered clouds
456,Urumqi,CN,43.801,87.6005,9.55,92,98,2.24,mist
457,Tanabe,JP,33.7333,135.3667,43.93,58,4,1.01,clear sky
458,Sayyan,YE,15.1718,44.3244,53.98,31,0,2.01,clear sky
459,Bonao,DO,18.9369,-70.4092,85.98,66,17,6.11,few clouds
460,Chumikan,RU,54.7183,135.315,7.97,96,100,5.79,light snow
461,Novosheshminsk,RU,55.0651,51.2338,19.31,96,100,7.18,overcast clouds
462,Tuatapere,NZ,-46.1333,167.6833,58.82,83,93,3.87,overcast clouds
463,Luganville,VU,-15.5333,167.1667,80.91,77,100,5.39,overcast clouds
464,Tautira,PF,-17.7333,-149.15,84.22,73,60,11.97,broken clouds
465,Maniago,IT,46.1706,12.7078,41.13,76,7,3.0,clear sky
466,Barsovo,RU,61.1667,73.1667,-2.07,97,15,7.05,few clouds
467,Waingapu,ID,-9.6567,120.2641,76.68,86,100,3.02,overcast clouds
468,Batagay-Alyta,RU,67.8006,130.4114,-18.17,90,99,2.93,overcast clouds
469,Skovorodino,RU,53.9833,123.9167,-8.41,96,100,2.93,overcast clouds
470,Nome,US,64.5011,-165.4064,-16.53,76,100,0.0,overcast clouds
471,Coquimbo,CL,-29.9533,-71.3436,71.33,60,75,8.05,broken clouds
472,Tevaitoa,PF,-16.7833,-151.5,81.59,73,96,16.71,overcast clouds
473,Christchurch,NZ,-43.5333,172.6333,66.33,90,100,11.5,overcast clouds
474,Salta,AR,-24.7859,-65.4117,79.57,53,49,1.99,moderate rain
475,El Dorado,US,38.7666,-120.5177,73.63,39,84,1.99,broken clouds
476,Nador,MA,35.174,-2.9287,57.45,77,75,2.3,broken clouds
477,Dudinka,RU,69.4058,86.1778,-3.39,88,7,19.17,clear sky
478,Voznesenye,RU,61.0106,35.4781,30.07,90,100,10.13,overcast clouds
479,Marsa Matruh,EG,31.3525,27.2453,56.07,59,59,18.88,broken clouds
480,Alta Floresta,BR,-9.8756,-56.0861,79.02,90,53,1.21,broken clouds
481,Panara,IN,22.0667,78.55,53.24,55,22,4.79,few clouds
482,Husavik,IS,66.0449,-17.3389,23.47,80,98,11.72,overcast clouds
483,Marquette,US,46.5333,-87.6335,23.83,56,100,7.92,overcast clouds
484,Pringsewu,ID,-5.3582,104.9744,71.58,92,100,1.66,overcast clouds
485,San Ramon,US,37.7799,-121.978,77.79,35,0,16.11,clear sky
486,Yumen,CN,40.2833,97.2,22.89,49,97,12.93,overcast clouds
487,Njeru,UG,0.4186,33.1731,68.38,80,35,5.3,scattered clouds
488,Nakamura,JP,32.9833,132.9333,37.33,91,6,4.43,clear sky
489,Viedma,AR,-40.8135,-62.9967,69.64,32,92,18.5,overcast clouds
490,Andenes,NO,69.3143,16.1194,28.38,86,100,23.02,overcast clouds
491,Kandrian,PG,-6.2167,149.55,77.88,86,97,4.56,light rain
492,Lagos,NG,6.5833,3.75,79.05,86,2,5.5,clear sky
493,Aquidaba,BR,-10.2814,-37.0186,80.38,63,7,14.25,clear sky
494,Samarai,PG,-10.6167,150.6667,81.36,63,81,12.88,broken clouds
495,Podosinovets,RU,60.2776,47.0659,20.23,94,100,8.25,light snow
496,Black River,JM,18.0264,-77.8487,79.99,72,19,4.18,few clouds
497,Upington,ZA,-28.4478,21.2561,85.35,25,1,6.2,clear sky
498,Gondar,ET,12.6,37.4667,61.27,45,8,5.48,clear sky
499,Borogontsy,RU,62.6683,131.1683,-37.98,100,62,2.91,broken clouds
500,Lagoa,PT,39.05,-27.9833,58.57,73,93,7.09,overcast clouds
501,Korla,CN,41.7597,86.1469,26.65,51,10,3.78,clear sky
502,Seoul,KR,37.5683,126.9778,22.44,56,79,0.74,broken clouds
503,Tombouctou,ML,20.0,-3.0,65.68,17,29,12.17,scattered clouds
504,Belmopan,BZ,17.25,-88.7667,83.48,46,34,3.98,scattered clouds
505,Ryotsu,JP,38.0833,138.4333,38.19,67,92,8.52,overcast clouds
506,Ormond Beach,US,29.2858,-81.0559,72.25,49,0,10.36,clear sky
507,Egvekinot,RU,66.3167,-179.1667,-25.85,88,29,4.09,scattered clouds
508,Lichinga,MZ,-13.3128,35.2406,61.05,94,100,5.01,overcast clouds
509,Biak,ID,-0.9131,122.8766,75.76,83,73,3.29,broken clouds
510,Taylor,US,32.3001,-99.8337,69.53,22,0,3.44,clear sky
511,Praia Da Vitoria,PT,38.7333,-27.0667,57.76,85,95,7.27,overcast clouds
512,Fereydunshahr,IR,32.941,50.121,18.5,52,10,6.58,clear sky
513,Bangsund,NO,64.3968,11.3949,32.05,86,75,8.05,light snow
514,Medea,DZ,36.2642,2.7539,41.45,68,0,3.69,clear sky
515,College,US,64.8569,-147.8028,-4.77,79,75,3.44,light snow
516,Borovoy,RU,55.4333,86.0833,-4.32,71,0,6.71,clear sky
517,Russell,US,32.3502,-85.1999,69.4,23,0,4.61,clear sky
518,Igurusi,TZ,-8.85,33.85,64.33,98,100,2.28,moderate rain
519,Solnechnyy,RU,50.7214,136.6319,-3.87,97,81,4.05,broken clouds
520,Drawsko Pomorskie,PL,53.5306,15.8097,37.08,96,100,1.01,overcast clouds
521,San Quintin,MX,30.4833,-115.95,71.89,27,0,7.65,clear sky
522,Haines Junction,CA,60.7522,-137.5108,19.44,83,42,7.52,scattered clouds
523,Catarman,PH,12.4989,124.6377,76.01,88,100,11.83,overcast clouds
524,Sungaipenuh,ID,-2.0833,101.3833,63.73,69,100,1.45,overcast clouds
525,Boende,CD,-0.2167,20.8667,81.52,46,86,2.98,overcast clouds
526,Victor Harbor,AU,-35.5667,138.6167,63.0,74,80,13.73,broken clouds
527,Sarangani,PH,5.4033,125.4636,81.45,79,100,20.65,overcast clouds
528,Haverfordwest,GB,51.8017,-4.9691,41.81,78,6,3.0,clear sky
529,Ponta Delgada,PT,37.7333,-25.6667,59.5,77,20,8.05,few clouds
530,Palmeirais,BR,-5.9778,-43.0633,80.13,82,100,2.68,overcast clouds
531,Tarakan,ID,3.3,117.6333,77.85,82,100,3.53,overcast clouds
532,Monrovia,LR,6.3005,-10.7969,78.57,85,5,7.34,clear sky
533,Hasaki,JP,35.7333,140.8333,34.2,75,100,27.76,light snow
534,Biltine,TD,14.5333,20.9167,68.72,10,0,15.23,clear sky
535,Fort Nelson,CA,58.8053,-122.7002,36.97,56,79,16.71,broken clouds
536,Boueni,YT,-12.9025,45.0761,76.98,79,100,9.89,light rain
537,Kitakata,JP,37.65,139.8667,29.55,97,100,1.34,light snow
538,Lakes Entrance,AU,-37.8811,147.981,62.17,76,73,9.35,broken clouds
539,Carndonagh,IE,55.25,-7.2667,40.62,86,80,5.97,broken clouds
540,Ulladulla,AU,-35.35,150.4667,67.87,89,100,8.77,overcast clouds
541,Hay River,CA,60.8156,-115.7999,0.81,90,99,5.17,overcast clouds
542,Woodstock,CA,43.1334,-80.7497,33.21,81,98,13.27,overcast clouds
543,Shitanjing,CN,39.2342,106.3439,21.97,58,100,2.48,overcast clouds
544,Tangara,BR,-6.1994,-35.8017,83.08,53,48,13.15,scattered clouds
545,Bat Yam,IL,32.0231,34.7503,53.64,95,0,8.05,clear sky
546,Nizwa,OM,22.9333,57.5333,63.48,44,1,1.45,clear sky
547,Nizhniy Kuranakh,RU,58.8353,125.4869,-30.95,100,100,2.37,overcast clouds
548,Kiknur,RU,57.3034,47.2011,18.43,96,100,6.08,overcast clouds
549,Pointe Michel,DM,15.25,-61.3833,78.26,72,9,15.79,clear sky
550,Ola,RU,59.5833,151.2833,-9.81,81,99,7.07,overcast clouds
551,Rudbar,AF,30.15,62.6,56.07,19,0,10.38,clear sky
552,Maungatapere,NZ,-35.75,174.2,75.07,90,100,5.1,overcast clouds
553,Saint-Joseph,RE,-21.3667,55.6167,73.78,81,25,3.49,scattered clouds
554,Huaibei,CN,33.9744,116.7917,36.61,75,94,3.09,light rain
555,Mountain Home,US,43.133,-115.6912,48.81,100,0,3.44,clear sky
556,Harper,LR,4.375,-7.7169,79.36,88,6,7.11,clear sky
557,Havelock,US,34.8791,-76.9013,64.98,51,3,8.01,clear sky
558,Faya,SA,18.3851,42.4509,54.12,85,5,5.19,clear sky
559,Keroka,KE,-0.7758,34.9453,56.61,87,100,1.16,overcast clouds
560,Palmer,US,42.1584,-72.3287,49.68,51,75,17.27,broken clouds
561,Bantogon,PH,6.5333,124.0333,77.77,81,100,3.71,overcast clouds
562,Smidovich,RU,48.6,133.8167,-3.62,99,100,3.18,overcast clouds
563,Namwala,ZM,-15.7504,26.4384,65.84,95,99,3.67,overcast clouds
564,Joao Pinheiro,BR,-17.7425,-46.1725,71.01,90,88,5.23,light rain
565,Sisimiut,GL,66.9395,-53.6735,1.6,81,100,6.93,overcast clouds
566,Hildburghausen,DE,50.4255,10.7318,42.3,96,100,8.5,overcast clouds
567,Paamiut,GL,61.994,-49.6678,12.29,73,100,7.92,overcast clouds
568,Leshan,CN,29.5623,103.7639,40.71,84,73,1.74,broken clouds
569,Ariano Irpino,IT,41.1489,15.0833,41.02,82,0,3.02,clear sky
570,Antsohihy,MG,-14.8796,47.9875,73.49,98,100,2.91,light rain
571,Klaksvik,FO,62.2266,-6.589,29.32,67,88,15.32,overcast clouds
572,Glenwood Springs,US,39.5505,-107.3248,46.4,65,100,11.5,overcast clouds
573,Celestun,MX,20.8667,-90.4,74.03,69,17,11.97,few clouds
574,Amboasary,MG,-25.0333,46.3833,75.6,93,34,7.49,scattered clouds
575,Glendive,US,47.1053,-104.7125,51.49,46,75,27.63,broken clouds
576,Saint-Francois,FR,46.4154,3.9054,46.42,92,0,2.3,clear sky
577,Valparaiso,CL,-33.0393,-71.6273,69.44,67,75,12.66,broken clouds
578,Santa Pola,ES,38.1917,-0.5658,54.68,82,75,0.0,broken clouds
579,Tahta,EG,26.7693,31.5021,52.09,55,13,5.77,few clouds
580,Afyonkarahisar,TR,38.75,30.6667,27.09,80,1,2.62,clear sky
581,Skegness,GB,53.1436,0.3363,41.29,77,26,20.62,scattered clouds
582,Cocorit,MX,27.5833,-109.9667,75.54,16,0,3.85,clear sky
583,Baghdad,IQ,33.3406,44.4009,55.36,38,0,4.25,clear sky
584,Ambon,ID,-3.6954,128.1814,77.14,94,40,4.61,scattered clouds
585,Coihaique,CL,-45.5752,-72.0662,59.61,38,20,11.5,few clouds
586,Svetlyy,RU,54.675,20.1347,39.25,93,100,11.95,overcast clouds
587,Ginda,IN,30.6945,78.4932,33.58,39,0,8.08,clear sky
588,Bathsheba,BB,13.2167,-59.5167,81.21,57,20,25.32,few clouds
589,Khasan,RU,42.4308,130.6434,27.3,78,65,4.68,broken clouds
590,Hovd,MN,48.0056,91.6419,-6.97,98,100,2.46,overcast clouds
591,Awjilah,LY,29.1081,21.2869,53.51,48,5,8.23,clear sky
592,Laishevo,RU,55.4046,49.5504,17.82,97,100,5.5,snow
593,Omsukchan,RU,62.5333,155.8,-28.68,81,45,3.42,scattered clouds
594,Vlasim,CZ,49.7063,14.8988,45.73,84,100,10.78,overcast clouds
595,Westerland,DE,54.9079,8.3033,41.02,81,40,13.8,light rain
596,Chiusi,IT,43.016,11.9475,45.37,86,0,3.11,clear sky
597,Durban,ZA,-29.8579,31.0292,76.93,97,99,1.99,moderate rain
598,Slyudyanka,RU,51.6594,103.7061,-11.2,95,99,4.05,overcast clouds
599,Gisborne,NZ,-38.6533,178.0042,77.95,66,32,7.43,scattered clouds
600,Hobyo,SO,5.3505,48.5268,75.61,66,44,19.93,scattered clouds
601,Rio Gallegos,AR,-51.6226,-69.2181,55.45,28,75,42.57,broken clouds
602,Sehithwa,BW,-20.4667,22.7167,72.28,64,31,6.49,light rain
603,Bendigo,AU,-36.7667,144.2833,61.86,63,0,5.01,clear sky
604,Kedrovyy,RU,56.1667,91.8167,-24.14,99,26,2.48,scattered clouds
605,Marawi,PH,7.9986,124.2928,66.65,96,100,0.69,overcast clouds
606,South Lake Tahoe,US,38.9332,-119.9844,60.06,39,0,3.44,clear sky
607,Kasongo-Lunda,CD,-6.4667,16.8167,72.61,88,46,1.01,light rain
608,Tema,GH,5.667,-0.0166,84.61,79,0,8.05,clear sky
609,Meulaboh,ID,4.1363,96.1285,75.54,83,100,2.3,overcast clouds
610,Bayan,CN,46.0833,127.4,10.54,94,100,7.99,overcast clouds
611,Ivdel,RU,60.6911,60.4206,9.95,94,100,9.8,overcast clouds
612,Kalakamati,BW,-20.5929,27.3121,68.4,70,14,4.18,few clouds
613,Mapiripan,CO,2.8892,-72.1256,81.59,69,97,4.36,overcast clouds
614,Longkou,CN,37.6508,120.3286,36.45,68,27,8.79,scattered clouds
615,Mayo,US,38.8876,-76.5119,61.02,33,20,8.05,few clouds
616,Tabuk,PH,17.4189,121.4443,67.98,96,49,1.07,scattered clouds
617,Gunnedah,AU,-30.9833,150.25,64.02,70,49,9.44,light rain
618,Piacabucu,BR,-10.4056,-36.4344,81.5,71,3,13.29,clear sky
619,Neiafu,TO,-18.65,-173.9833,81.93,74,100,13.56,overcast clouds
620,Wenzhou,CN,27.9994,120.6668,46.11,83,100,2.46,overcast clouds
621,Big Spring,US,32.2504,-101.4787,67.1,15,0,5.99,clear sky
622,Punta Alta,AR,-38.8759,-62.0736,70.56,74,100,24.32,overcast clouds
623,Alyangula,AU,-13.8483,136.4192,81.41,72,63,5.23,broken clouds
624,Nemuro,JP,43.3236,145.575,23.29,74,84,4.65,broken clouds
625,Michigan City,US,41.7075,-86.895,31.35,75,100,11.5,overcast clouds
626,Puttur,IN,12.7667,75.2167,75.31,91,2,2.64,clear sky
627,Rumoi,JP,43.9344,141.6428,13.96,93,60,4.23,broken clouds
628,Sawakin,SD,19.1059,37.3321,72.91,74,100,15.46,overcast clouds
629,Buraydah,SA,26.326,43.975,63.05,42,40,13.51,scattered clouds
630,Santa Cruz,BO,-17.8,-63.1667,90.86,49,20,11.5,few clouds
631,Bintulu,MY,3.1667,113.0333,75.61,100,40,1.14,light rain
632,Nelson Bay,AU,-32.7167,152.15,75.0,86,89,1.99,overcast clouds
633,Itaituba,BR,-4.2761,-55.9836,78.96,94,75,4.61,moderate rain
634,Moranbah,AU,-22.0016,148.0466,72.79,81,0,5.93,clear sky
635,Zhigansk,RU,66.7697,123.3711,-29.15,97,99,10.85,overcast clouds
636,Elizabeth City,US,36.2946,-76.2511,66.25,34,2,10.0,clear sky
637,Ramos Arizpe,MX,25.55,-100.9667,65.82,48,0,11.5,clear sky
638,Lasa,IT,46.6166,10.7002,42.26,76,15,1.79,few clouds
639,Cintalapa,MX,16.6951,-93.7272,79.34,50,17,7.34,few clouds
640,Fuxin,CN,42.0156,121.6589,23.67,63,33,8.7,scattered clouds
641,Ambulu,ID,-8.345,113.6058,75.81,88,100,2.13,moderate rain
642,Mookane,BW,-23.688,26.6595,75.22,50,86,2.53,overcast clouds
643,Kishtwar,IN,33.3167,75.7667,28.56,63,1,6.64,clear sky
644,Arawa,PG,-6.2132,155.5367,79.56,86,87,2.28,light rain
645,Usinsk,RU,65.9939,57.5281,24.46,94,100,22.5,light snow
646,Ballina,AU,-28.8667,153.5667,68.77,91,25,9.64,scattered clouds
647,Novaya Igirma,RU,57.1334,103.9112,-25.87,100,79,2.46,broken clouds
648,Kauhajoki,FI,62.4333,22.1833,30.65,85,14,11.07,few clouds
649,Lyuban,BY,52.7985,28.0048,35.92,98,100,8.86,overcast clouds
650,Panorama,GR,40.5878,23.0315,46.9,70,0,1.01,clear sky
651,Port Said,EG,31.2565,32.2841,58.19,64,80,11.32,broken clouds
652,Namibe,AO,-15.1961,12.1522,73.65,83,100,4.34,overcast clouds
653,Moreira Sales,BR,-24.0622,-53.0069,81.16,58,86,2.71,overcast clouds
654,Klyuchi,RU,52.2667,79.1667,-20.61,100,94,3.11,overcast clouds
655,Wanning,CN,18.8003,110.3967,69.6,92,31,4.25,scattered clouds
656,Trairi,BR,-3.2778,-39.2689,79.81,73,97,6.58,overcast clouds
657,Olafsvik,IS,64.8945,-23.7142,35.19,57,52,23.26,light snow
658,Meyrin,CH,46.2342,6.0803,50.61,71,75,2.3,broken clouds
659,Tchibanga,GA,-2.85,11.0333,72.54,97,99,3.04,light rain
660,Barao De Melgaco,BR,-16.1944,-55.9675,86.52,74,39,5.93,scattered clouds
661,Saint-Georges,GD,12.0564,-61.7485,82.08,65,20,26.46,few clouds
662,Kluang,MY,2.0251,103.3328,73.13,97,100,3.02,light rain
663,Kyshtovka,RU,56.555,76.6271,-14.71,100,20,4.88,few clouds
664,Cozumel,MX,20.5083,-86.9458,77.07,79,75,10.0,broken clouds
665,Vizinga,RU,61.0749,50.1031,21.42,94,100,8.99,light snow
666,Thoen,TH,17.6129,99.2161,70.56,53,81,2.3,broken clouds
667,San Policarpo,PH,12.1791,125.5072,78.62,83,100,15.64,light rain
668,North Myrtle Beach,US,33.816,-78.68,68.25,49,0,8.05,clear sky
669,Torit,SS,4.4133,32.5678,88.93,21,99,5.99,overcast clouds
670,Pasni,PK,25.2631,63.471,69.22,56,0,7.16,clear sky
671,Ipora,BR,-16.4419,-51.1178,69.71,94,99,3.6,overcast clouds
672,Lavrentiya,RU,65.5833,-171.0,-28.73,97,62,4.36,broken clouds
673,Weinan,CN,34.5036,109.5089,37.09,55,100,2.19,overcast clouds
674,Tadine,NC,-21.55,167.8833,79.03,94,100,31.23,heavy intensity rain
675,Buala,SB,-8.145,159.5921,79.61,82,100,6.8,light rain
676,Aksarka,RU,66.5606,67.7975,11.43,91,100,18.77,overcast clouds
677,Nishihara,JP,26.1842,127.7558,60.08,75,75,5.75,broken clouds
678,Urengoy,RU,65.9667,78.3667,-3.26,84,51,13.38,broken clouds
679,Corning,US,42.1428,-77.0547,39.9,76,100,14.97,overcast clouds
680,Peniche,PT,39.3558,-9.3811,60.28,88,100,3.09,light rain
681,Guanica,PR,17.9716,-66.908,83.5,64,2,8.99,clear sky
682,Diego De Almagro,CL,-26.3667,-70.05,74.05,30,0,13.4,clear sky
683,Atuntaqui,EC,0.3333,-78.2167,67.82,80,100,3.65,moderate rain
684,Sal,JO,32.5694,35.9119,45.21,90,18,6.42,few clouds
685,Vereeniging,ZA,-26.6731,27.9261,68.61,69,16,6.24,few clouds
686,Sioux Lookout,CA,50.1001,-91.917,16.18,79,100,10.36,overcast clouds
687,Lucapa,AO,-8.4192,20.7447,65.14,96,100,3.24,light rain
688,Dubai,AE,25.2582,55.3047,73.22,49,0,3.44,clear sky
689,Praia,CV,14.9215,-23.5087,77.54,41,0,12.66,clear sky
690,Tshela,CD,-4.9833,12.9333,72.37,97,5,1.5,clear sky
691,Wisconsin Rapids,US,44.3836,-89.8174,28.44,64,99,1.99,overcast clouds
692,Domoni,KM,-12.2569,44.5319,79.07,84,100,5.5,overcast clouds
